[{"id":2,"lat":"45.2817252","lng":"-72.1864457","web":"https:\/\/epicerie123zero.com\/","city":"Magog","name":"123Zéro - Épicerie Zéro Déchet","phone":null,"state":"QC","postal":"J1X 0N4","address":"2389 Rue Principale O Suite 140"},{"id":3,"lat":"47.358412","lng":"-61.895127","web":"https:\/\/www.circulaire-en-ligne.ca\/annuaire\/iga-coop-iles-de-la-madeleine\/letang-du-nord","city":"L'Étang-du-Nord","name":"IGA - Coop Unité Lavernière","phone":null,"state":"QC","postal":"G4T 3M9","address":"1069 Chem. du Gros Cap"},{"id":4,"lat":"47.4037551","lng":"-61.8028678","web":"https:\/\/coopham.ca\/","city":"Havre-aux-Maisons","name":"Supermarché IGA Coop De H.A.M.","phone":null,"state":"QC","postal":"G4T 5A6","address":"495 Rte 199"},{"id":5,"lat":"47.407601","lng":"-61.892425","web":"https:\/\/www.circulaire-en-ligne.ca\/annuaire\/iga-coop-iles-de-la-madeleine\/fatima","city":"Fatima","name":"IGA Coop L'Éveil","phone":null,"state":"QC","postal":"G4T 2S9","address":"615 Chem. des Caps"},{"id":6,"lat":"45.5472406","lng":"-73.6029023","web":"https:\/\/fr-ca.facebook.com\/epicerielesrecoltes\/","city":"Montréal","name":"Épicerie Les Récoltes - Produits Biologiques et locaux","phone":null,"state":"QC","postal":"H2G 1B6","address":"1895 Rue Bélanger"},{"id":7,"lat":"45.3069285","lng":"-73.2522389","web":"https:\/\/fr-ca.facebook.com\/epicerielespetitesbonneville\/","city":"Saint-Jean-sur-Richelieu","name":"Épicerie Les Petites Bonneville","phone":null,"state":"QC","postal":"J3B 6V8","address":"226 Rue Champlain"},{"id":8,"lat":"45.5367991","lng":"-73.615595","web":"https:\/\/www.vracenfolie.com\/","city":"Montréal","name":"Vrac en Folie","phone":null,"state":"QC","postal":"H2R 1S7","address":"274 Rue Jean-TalE"},{"id":9,"lat":"45.5019673","lng":"-73.5111162","web":"https:\/\/www.crimeetgourmandise.ca\/","city":"Saint-Lambert","name":"Crime et gourmandise","phone":null,"state":"QC","postal":"J4P 1R9","address":"38 Rue Green"},{"id":10,"lat":"45.5436894","lng":"-73.6675146","web":"https:\/\/www.espaceflo.com\/","city":"Montréal","name":"Espace Flo","phone":null,"state":"QC","postal":"H3L 1V3","address":"312 Rue Fleury O"},{"id":11,"lat":"45.552712","lng":"-73.539877","web":"https:\/\/www.lebierologue.com\/","city":"Montreal","name":"Le Bièrologue","phone":null,"state":"QC","postal":"H1V 1K5","address":"4301 Ontario St E"},{"id":12,"lat":"46.7643152","lng":"-71.3689864","web":"https:\/\/www.boutiquelecafeier.ca\/","city":"Québec","name":"Boutique Le Caféier","phone":null,"state":"QC","postal":"G1X 4V9","address":"811 Rte Jean-Gauvin"},{"id":13,"lat":"45.2899436","lng":"-72.213356","web":"https:\/\/www.patisseriedorville.ca\/","city":"Eastman","name":"Patisserie Dorville","phone":null,"state":"QC","postal":"J0E 1P0","address":"389 Rue Principale"},{"id":14,"lat":"50.8195702","lng":"-119.6888744","web":"https:\/\/www.facebook.com\/friendsamongsttheweeds\/","city":"Chase","name":"Amongst the Weeds Herbal Apothecary","phone":null,"state":"BC","postal":"V0E 1M0","address":"723 Shuswap Ave"},{"id":15,"lat":"45.5601985","lng":"-73.4385604","web":"https:\/\/macafeine.ca\/","city":"Boucherville","name":"Ma Caféine - Boutique Spécialisée Café","phone":null,"state":"QC","postal":"J4B 7J4","address":"1370 Rue de Coulomb #101"},{"id":16,"lat":"43.4920941","lng":"-80.5131044","web":"https:\/\/pharmasave.com\/store\/pharmasave-waterloo-wellness-pharmacy__trashed\/","city":"Waterloo","name":"Waterloo Wellness Pharmacy","phone":null,"state":"ON","postal":"N2K 2E1","address":"209 LexingtRd"},{"id":17,"lat":"45.8272563","lng":"-73.4245732","web":"https:\/\/follesdici.com\/","city":"L'Assomption","name":"Folles d'ici boutique zéro déchet et écoresponsable","phone":null,"state":"QC","postal":"J5W 1S2","address":"349 Bd de l'Ange-Gardien"},{"id":18,"lat":"46.0251025","lng":"-73.4402642","web":"https:\/\/follesdici.com\/","city":"Joliette","name":"Folles d'ici boutique zéro déchet et écoresponsable","phone":null,"state":"QC","postal":"J6E 5E4","address":"24 Pl. Bourget N"},{"id":19,"lat":"46.965893","lng":"-70.9662172","web":"https:\/\/tourisme.iledorleans.com\/membres\/vignoble-domaine-de-la-source-a-marguerite\/","city":"Sainte-Famille","name":"Domaine de la source a Marguerite - Vignoble","phone":null,"state":"QC","postal":"G0A 3P0","address":"2388 Chem. Royal"},{"id":20,"lat":"45.4657078","lng":"-73.5668866","web":"https:\/\/www.chezrobin.com\/","city":"Verdun","name":"Chez Robin marché local","phone":null,"state":"QC","postal":"H4G 1V1","address":"3819 Rue Wellingt#102"},{"id":21,"lat":"46.811027","lng":"-71.2412367","web":"https:\/\/philtrecafe.com\/","city":"Québec","name":"Le Philtre Café","phone":null,"state":"QC","postal":"G1N 0C2","address":"504 Rue Saint-Vallier O"},{"id":22,"lat":"48.3482791","lng":"-64.6799923","web":"https:\/\/fr-ca.facebook.com\/PecheMalte\/","city":"Chandler","name":"Péché malté","phone":null,"state":"QC","postal":"G0C 1K0","address":"65 Rue Commerciale O Local 101"},{"id":23,"lat":"45.5290825","lng":"-73.5156162","web":"https:\/\/kitschalos.com\/","city":"Longueuil","name":"Kitsch à l'os ou pas","phone":null,"state":"QC","postal":"J4H 1V3","address":"32 Rue Le Moyne O"},{"id":24,"lat":"45.5454515","lng":"-73.5524737","web":"https:\/\/www.ulocal.co\/en\/location\/kitscha-los-ou-pas-3439-hochelaga-montreal-qc-h1w-1h4-ca-2\/","city":"Montréal","name":"Kitsch to the bone ... or not","phone":null,"state":"QC","postal":"H1W 1H4","address":"3439 Rue Hochelaga"},{"id":25,"lat":"45.4456557","lng":"-73.4382179","web":"https:\/\/www.signelocal.com\/blogs\/blogue\/lexperience-signe-local-quartier-dix30","city":"Brossard","name":"Signé Local (Dix30","phone":null,"state":"QC","postal":"J4Y 0N5","address":"8015 Boulevard du Quartier DIX30"},{"id":26,"lat":"46.8307264","lng":"-71.2993431","web":"https:\/\/www.signelocal.com\/","city":"Saint-Michel-de-Bellechasse","name":"Signé Local (Québec","phone":null,"state":"QC","postal":"G0R 3S0","address":"A 20"},{"id":27,"lat":"45.5896167","lng":"-122.7511135","web":"https:\/\/www.revivalpdx.com\/","city":"Portland","name":"Revival Harmonic Health","phone":null,"state":"OR","postal":"97205","address":"914 SW 11th Ave"},{"id":28,"lat":"54.721526","lng":"-113.286236","web":"https:\/\/www.glasfloral.com\/","city":"Athabasca","name":"Glas Floral Studio","phone":null,"state":"AB","postal":"AB T9S 1T2","address":"5003 50 St"},{"id":29,"lat":"45.5579988","lng":"-73.5839394","web":"https:\/\/www.forketta.ca\/","city":"Montréal","name":"Forketta Épicerie Gourmet","phone":null,"state":"QC","postal":"H1X 1H1","address":"3589 Rue Beaubien E"},{"id":30,"lat":"45.3320664","lng":"-73.2797655","web":"https:\/\/lethedaurea.com\/","city":"Saint-Jean-sur-Richelieu","name":"Le thé d'Auréa","phone":null,"state":"QC","postal":"J3A 1P1","address":"553 Rue Pierre-Caisse"},{"id":31,"lat":"48.1034035","lng":"-77.7893065","web":"https:\/\/boutiqueentretemps.com\/shop\/","city":"Val-d'Or","name":"Entretemps atelier-boutique","phone":null,"state":"QC","postal":"J9P 1T1","address":"888 3e Avenue #104"},{"id":32,"lat":"45.9894147","lng":"-74.1185092","web":"https:\/\/canadainf.com\/quebec\/marche-de-la-gare-789735","city":"Sainte-Adèle","name":"MARCHÉ de la GARE - Café - Epicerie Fine - Fromagerie\/Charcuterie - Bière Artisanale\/Vin du Quebec - Loterie","phone":null,"state":"QC","postal":"J8B 1Z5","address":"1600 Chem. Pierre Péladeau"},{"id":33,"lat":"45.8562063","lng":"-73.2357425","web":"https:\/\/fr-ca.facebook.com\/LilyGourmandeCafe\/","city":"Contrecoeur","name":"Lily Gourmande","phone":null,"state":"QC","postal":"J0L 1C0","address":"606 Rue Saint-Antoine"},{"id":34,"lat":"45.8645005","lng":"-73.1448311","web":"https:\/\/www.ecluse10.com\/","city":"Saint-Ours","name":"Ecluse No10 - Café Crèmerie","phone":null,"state":"QC","postal":"J0G 1P0","address":"2945 Chem. des Patriotes"},{"id":35,"lat":"43.2470347","lng":"-79.8177664","web":"https:\/\/www.crownpointmarket.com\/","city":"Hamilton","name":"Crown Point Market","phone":null,"state":"ON","postal":"L8H 3Z3","address":"162 Ottawa St N"},{"id":36,"lat":"45.5197547","lng":"-73.6747391","web":"https:\/\/www.metro.ca\/trouver-une-epicerie\/168","city":"Saint-Laurent","name":"Metro Plus Cote Vertu","phone":null,"state":"QC","postal":"H4L 5C8","address":"740 Blvd. Cote-Vertu Ouest Bureau 134"},{"id":37,"lat":"45.4615816","lng":"-73.8655434","web":"https:\/\/www.metro.ca\/trouver-une-epicerie\/181","city":"Kirkland","name":"Metro Plus Kirkland","phone":null,"state":"QC","postal":"H9H 4M4","address":"3801 Saint-Charles Blvd"},{"id":38,"lat":"45.4322721","lng":"-73.8492364","web":"https:\/\/www.metro.ca\/trouver-une-epicerie\/183","city":"Beaconsfield","name":"Metro Plus Beaconsfield","phone":null,"state":"QC","postal":"H9W 2X3","address":"50 Saint-Charles Blvd Suite 17"},{"id":39,"lat":"45.429573","lng":"-73.6352162","web":"https:\/\/www.metro.ca\/trouver-une-epicerie\/170","city":"Montreal","name":"Metro Plus Dollard","phone":null,"state":"QC","postal":"H8N 3G5","address":"1880 Dollard Ave"},{"id":40,"lat":"45.4459623","lng":"-73.8155351","web":"https:\/\/www.metro.ca\/trouver-une-epicerie\/185","city":"Pointe-Claire","name":"Metro Plus Pointe-Claire","phone":null,"state":"QC","postal":"H9R 3J1","address":"325 Boul. Saint-Jean"},{"id":41,"lat":"45.4790359","lng":"-73.6026708","web":"https:\/\/www.metro.ca\/en\/find-a-grocery\/66","city":"Westmount","name":"Metro Westmount","phone":null,"state":"QC","postal":"H3Z 1G8","address":"4840 Sherbrooke St W"},{"id":42,"lat":"45.4974184","lng":"-73.5732686","web":"https:\/\/en.wikipedia.org\/wiki\/De_la_Montagne_Street","city":"1193 Rue de la Montagne","name":"de la Montagne","phone":null,"state":"QC","postal":"H3G 1Z2","address":"de la Montagne"},{"id":43,"lat":"45.510319","lng":"-73.5750033","web":"https:\/\/www.metro.ca\/trouver-une-epicerie\/70","city":"Montreal","name":"Métro Alimentation Tony Brunelle inc.","phone":null,"state":"QC","postal":"H2X 3P9","address":"3575 Park Ave"},{"id":44,"lat":"45.5206724","lng":"-73.6078423","web":null,"city":"Outremont","name":"Les 5 saisons","phone":null,"state":"QC","postal":"H2V 1V3","address":"1180 Bernard Ave"},{"id":45,"lat":"45.6045902","lng":"-73.5514797","web":null,"city":"Anjou","name":"Metro Anjou","phone":null,"state":"QC","postal":"H1K 3V4","address":"6500 Bd Joseph-Renaud"},{"id":46,"lat":"45.5821704","lng":"-73.5427836","web":"https:\/\/www.metro.ca\/circulaire","city":"Montreal","name":"Metro Plus Domaine","phone":null,"state":"QC","postal":"H1N 1C6","address":"6550 Sherbrooke St E"},{"id":47,"lat":"45.567905","lng":"-73.5894019","web":"https:\/\/www.pagesjaunes.ca\/bus\/Quebec\/Montreal\/Metro-Plus-Pie-IX\/2666368.html","city":"Montréal","name":"Metro Plus Pie IX\/Jean-Talon","phone":null,"state":"QC","postal":"H1S 1J7","address":"4290 Rue Jean-TalE"},{"id":48,"lat":"45.6070555","lng":"-73.5847354","web":"https:\/\/groupemessier.com\/","city":"Montréal","name":"Metro Plus Groupe Messier","phone":null,"state":"QC","postal":"H1J 2Z9","address":"7172 Rue Bombardier"},{"id":49,"lat":"45.5299652","lng":"-73.5906733","web":null,"city":"Montréal","name":"Metro St-Hubert","phone":null,"state":"QC","postal":"H2J 2Y5","address":"5300 Rue St-Hubert"},{"id":50,"lat":"45.5312557","lng":"-73.5654928","web":"https:\/\/www.metro.ca\/trouver-une-epicerie\/50","city":"Montréal","name":"Metro Bigras","phone":null,"state":"QC","postal":"H2K 1A7","address":"2008 Rue Gauthier"},{"id":51,"lat":"44.7458541","lng":"-65.5178754","web":"https:\/\/fr-fr.facebook.com\/homebodyannapolis\/","city":"Annapolis Royal","name":"Homebody Decor Apparel and Vintage","phone":null,"state":"NS","postal":"NS","address":"Drury Ln"},{"id":52,"lat":"45.5583745","lng":"-73.6367991","web":"https:\/\/www.metro.ca\/trouver-une-epicerie\/128","city":"Montréal","name":"Metro Plus André-Grasset","phone":null,"state":"QC","postal":"H2M 2E9","address":"8935 Av. André-Grasset"},{"id":53,"lat":"45.5516969","lng":"-73.5642488","web":"https:\/\/www.metro.ca\/trouver-une-epicerie\/137","city":"Montreal","name":"Metro Plus St-Joseph","phone":null,"state":"QC","postal":"H1X 1W6","address":"3600 St Joseph Blvd E"},{"id":54,"lat":"46.5516332","lng":"-75.4965837","web":"https:\/\/vraceco.com\/","city":"Mont-Laurier","name":"Vrac Éco épicerie écologique","phone":null,"state":"QC","postal":"J9L 2W1","address":"430 Rue Mercier"},{"id":55,"lat":"46.9200635","lng":"-70.8908427","web":"https:\/\/fr-ca.facebook.com\/joinspiration\/","city":"Saint-Jean-de-l'Île-d'Orléans","name":"Jo Inspiration","phone":null,"state":"QC","postal":"G0A 3W0","address":"5403 Chem. Royal"},{"id":56,"lat":"45.256347","lng":"-74.1300612","web":"https:\/\/www.instagram.com\/boutiquedanielstonge\/?hl=fr","city":"Salaberry-de-Valleyfield","name":"Boutique Daniel St-Onge DS\/O","phone":null,"state":"QC","postal":"J6T 1A8","address":"195 Rue Victoria"},{"id":57,"lat":"46.81533","lng":"-71.220872","web":"https:\/\/laplaceboutiquegourmande.com\/","city":"Québec","name":"La Place Boutique Gourmande","phone":null,"state":"QC","postal":"G1K 3C1","address":"699 Rue Saint-Joseph E"},{"id":58,"lat":"46.3421145","lng":"-72.540537","web":"https:\/\/www.facebook.com\/people\/Les-Folies-de-Rachel\/100063648964654\/","city":"Trois-Rivières","name":"Les Folies de Rachel","phone":null,"state":"QC","postal":"G9A 4X3","address":"1400 Rue Notre Dame Centre"},{"id":59,"lat":"46.81049","lng":"-71.2187735","web":"https:\/\/jamoisan.com\/","city":"Québec","name":"Épicerie J.A. Moisan","phone":null,"state":"QC","postal":"G1R 1P7","address":"685 Rue Saint-Jean"},{"id":60,"lat":"45.2596005","lng":"-73.6189751","web":"http:\/\/www.aux3chocolats.com\/","city":"Saint-Rémi","name":"Aux 3 Chocolats","phone":null,"state":"QC","postal":"J0L 2L0","address":"887 Rue Notre Dame"},{"id":61,"lat":"45.5038975","lng":"-73.5692203","web":null,"city":"Montréal","name":"De fil en aiguille tailleur","phone":null,"state":"QC","postal":"H3B 3Y5","address":"585 Sainte-Catherine O 2e étage"},{"id":62,"lat":"48.3937005","lng":"-71.0682136","web":"https:\/\/eugeneallard.com\/","city":"Chicoutimi","name":"Eugène Allard Cuisine et Tendances","phone":null,"state":"QC","postal":"G7H 7X3","address":"2448 Rue des Roitelets"},{"id":63,"lat":"45.6927915","lng":"-73.9086957","web":null,"city":"Blainville","name":"Figs And Rosemary","phone":null,"state":"QC","postal":"J7C 2P2","address":"1436 Bd du Curé-Labelle #105"},{"id":64,"lat":"48.5233357","lng":"-72.2296428","web":"https:\/\/1000fleurs.ca\/","city":"Roberval","name":"Fleuriste aux 1000 fleurs","phone":null,"state":"QC","postal":"G8H 2B5","address":"1101 Bd Marcotte"},{"id":65,"lat":"45.5049016","lng":"-73.5562123","web":null,"city":"Montreal","name":"Le Petit Dep - Café et épicerie fine","phone":null,"state":"QC","postal":"H2Y 2V8","address":"461 St Sulpice St"},{"id":66,"lat":"47.7690162","lng":"-65.7142715","web":"https:\/\/fr-ca.facebook.com\/jardins.robertdiane\/","city":"Petit-Rocher-Sud","name":"Les Jardins Robert & Diane","phone":null,"state":"NB","postal":"NB E8J 1A8","address":"1005 Route 134"},{"id":67,"lat":"48.4047113","lng":"-71.0549238","web":"https:\/\/rosebonbon.ca\/","city":"Chicoutimi","name":"Rose bon bon","phone":null,"state":"QC","postal":"G7H 4B7","address":"1408 Bd Talbot"},{"id":68,"lat":"46.7735844","lng":"-71.2785545","web":"https:\/\/rosebonbon.ca\/","city":"Québec","name":"Rose Bon Bon","phone":null,"state":"QC","postal":"G1V 2L1","address":"2452 Bd Laurier"},{"id":69,"lat":"50.2174088","lng":"-66.3817667","web":null,"city":"Sept-Îles","name":"Toi Moi et Café","phone":null,"state":"QC","postal":"G4R 1X8","address":"685 Bd Laure"},{"id":70,"lat":"47.2436987","lng":"-70.2349454","web":"http:\/\/www.rocheaveillon.com\/restaurant\/resto\/","city":"Saint-Jean-Port-Joli","name":"La Roche à Veillon","phone":null,"state":"QC","postal":"G0R 3G0","address":"547 Av. de Gaspé E"},{"id":71,"lat":"49.283692","lng":"-123.11206","web":null,"city":"Vancouver","name":"Vancouver Gift Baskets","phone":null,"state":"BC","postal":"V6B 2Z4","address":"422 Richards St #170"},{"id":72,"lat":"47.0723609","lng":"-70.8749888","web":"https:\/\/canyonsa.qc.ca\/","city":"Saint-Ferréol-les-Neiges","name":"Canyon Sainte-Anne","phone":null,"state":"QC","postal":"G0A 3R0","address":"1902 Bd les Neiges"},{"id":73,"lat":"45.5732211","lng":"-73.6863779","web":"https:\/\/www.epiceriealterrenative.ca\/","city":"Laval","name":"Alterrenative - Épicerie zéro déchet - Laval","phone":null,"state":"QC","postal":"H7G 2C3","address":"139 Bd de la Concorde E"},{"id":74,"lat":"42.204799","lng":"-83.1488221","web":"https:\/\/glowfishstudios.com\/","city":"Wyandotte","name":"Glow Fish Studios","phone":null,"state":"MI","postal":"48192","address":"2840 Biddle Ave"},{"id":75,"lat":"48.5713791","lng":"-78.1130236","web":"https:\/\/boutique.sylviefleuriste.com\/","city":"Amos","name":"Sylvie Fleuriste inc.","phone":null,"state":"QC","postal":"J9T 4B2","address":"82 1re Avenue E"},{"id":76,"lat":"45.8863219","lng":"-72.4911938","web":"https:\/\/cafe-epicerie-sante-au-bonheur-dendorphine.business.site\/","city":"Drummondville","name":"Café-Épicerie-Boutique Au Bonheur d'Endorphine","phone":null,"state":"QC","postal":"J2C 1J7","address":"135 Rue Hériot porte B"},{"id":77,"lat":"46.8822886","lng":"-71.2888554","web":"https:\/\/macaronsdesophie.ca\/","city":"Québec","name":"Les macarons de Sophie","phone":null,"state":"QC","postal":"G1G 3Z5","address":"15059 Boul. Henri-Bourassa"},{"id":78,"lat":"45.493133","lng":"-73.4852424","web":"https:\/\/www.mllemoutarde.ca\/","city":"Greenfield Park","name":"Mlle Moutarde","phone":null,"state":"QC","postal":"J4V 2M4","address":"224 Bd Churchill"},{"id":79,"lat":"46.7357886","lng":"-71.294867","web":"https:\/\/jbepiciergourmand.com\/","city":"Levis","name":"Boucherie JB Allard","phone":null,"state":"QC","postal":"G7A 2W9","address":"223 Rte Marie-Victorin"},{"id":80,"lat":"46.935244","lng":"-71.311101","web":"https:\/\/www.cafenoisette.ca\/","city":"Montréal","name":"Café Noisette","phone":null,"state":"QC","postal":"H2S 1A1","address":"236 Pl. du Marché-du-Nord"},{"id":81,"lat":"46.1148426","lng":"-70.6597314","web":"https:\/\/www.artisanducafe.com\/","city":"Saint-Georges","name":"L'Artisan du Café","phone":null,"state":"QC","postal":"G5Y 1P5","address":"13870 Bd Lacroix"},{"id":82,"lat":"45.8949604","lng":"-74.1578429","web":"https:\/\/www.lapetiteboitealunch.com\/","city":"Saint-Sauveur","name":"La Petite Boite à Lunch","phone":null,"state":"QC","postal":"J0R 1R0","address":"4 A Av. Filion"},{"id":83,"lat":"48.4489297","lng":"-68.5333689","web":"https:\/\/fr-ca.facebook.com\/pechesmignonsrimouski\/","city":"Rimouski","name":"Peches Mignons","phone":null,"state":"QC","postal":"G5L 4B6","address":"119 Rue St Germain O"},{"id":84,"lat":"45.2658299","lng":"-72.1525366","web":"https:\/\/scrupuleboutique.com\/","city":"Magog","name":"Scrupule & Cie","phone":null,"state":"QC","postal":"J1X 2A9","address":"366 Rue Principale O"},{"id":85,"lat":"45.670894","lng":"-73.754528","web":"https:\/\/www.passionfleurie.ca\/","city":"615b Rue Notre Dame","name":"Passion Fleurie","phone":null,"state":"QC","postal":"J0S 1R0","address":"615 Rang Notre-Dame"},{"id":86,"lat":"46.3765991","lng":"-75.9777707","web":"https:\/\/chezgargantini.ca\/","city":"Maniwaki","name":"Chez Gargantini","phone":null,"state":"QC","postal":"J9E 2J5","address":"214 Rue Notre Dame"},{"id":87,"lat":"46.6152723","lng":"-72.735821","web":"https:\/\/jules-fromages-convives.business.site\/","city":"Shawinigan","name":"Jules - fromages & convives","phone":null,"state":"QC","postal":"G9T 1A4","address":"3251 50E Ave"},{"id":88,"lat":"47.439532","lng":"-72.7847194","web":"https:\/\/kiranosante.ca\/","city":"La Tuque","name":"Kirano Santé","phone":null,"state":"QC","postal":"G9X 3A9","address":"548 Rue Commerciale"},{"id":89,"lat":"46.6933067","lng":"-72.7421621","web":"https:\/\/maisoncadorette.com\/","city":"Shawinigan","name":"Maison Cadorette","phone":null,"state":"QC","postal":"G0X 2V0","address":"1701 Chem. de Saint-Jean-des-Piles"},{"id":90,"lat":"46.0857333","lng":"-73.1880306","web":"https:\/\/www.jeancoutu.com\/","city":"Berthierville","name":"PJC Jean Coutu","phone":null,"state":"QC","postal":"J0K 1A0","address":"790 Bd Gilles Villeneuve"},{"id":91,"lat":"45.5640425","lng":"-73.6555002","web":"https:\/\/www.mamieclafoutis.com\/les-boutiques\/boulangerie-patisserie-fleury\/","city":"Montreal","name":"Mamie Clafoutis Fleury","phone":null,"state":"QC","postal":"H2C 1S8","address":"1602 Rue Fleury E"},{"id":92,"lat":"45.4848375","lng":"-73.6287153","web":"https:\/\/www.metro.ca\/trouver-une-epicerie\/68","city":"Montreal","name":"Metro Queen Mary","phone":null,"state":"QC","postal":"H3W 1Y2","address":"5201 Queen Mary Rd"},{"id":93,"lat":"45.463013","lng":"-73.5683256","web":"https:\/\/www.metro.ca\/trouver-une-epicerie\/51","city":"Verdun","name":"Metro Bellemare Verdun","phone":null,"state":"QC","postal":"H4G 2M5","address":"349 Rue de l'Église"},{"id":94,"lat":"44.309756","lng":"-73.351153","web":"https:\/\/www.tripadvisor.ca\/Restaurant_Review-g47692-d4758748-Reviews-Essex_Ice_Cream_Cafe-Essex_New_York.html","city":"Essex","name":"Essex Ice Cream Cafe","phone":null,"state":"NY","postal":"12936","address":"2314 Main Street"},{"id":95,"lat":"46.8133303","lng":"-71.2270718","web":"https:\/\/monsaintroch.com\/entreprises\/accro-cuisine-dependances\/","city":"Québec","name":"Accro cuisine et dépendances","phone":null,"state":"QC","postal":"G1K 3B1","address":"273 Rue Saint-Joseph E"},{"id":96,"lat":"46.818612","lng":"-72.50814","web":"https:\/\/auxcinqsoeurs.com\/","city":"Sainte-Thècle","name":"Café Aux Cinq Soeurs","phone":null,"state":"QC","postal":"G0X 3G0","address":"290 Rue Masson"},{"id":97,"lat":"45.7604954","lng":"-73.8145155","web":"https:\/\/www.facebook.com\/profile.php?id=100064089781323","city":"Sainte-Anne-des-Plaines","name":"La Fournée D'Hortensia","phone":null,"state":"QC","postal":"J0N 1H0","address":"153 Boulevard Ste Anne"},{"id":98,"lat":"45.5475879","lng":"-73.574902","web":"https:\/\/centrecafefix.ca\/","city":"Montréal","name":"Centre Caféfix","phone":null,"state":"QC","postal":"H1Y 2S6","address":"5357 5e Avenue"},{"id":99,"lat":"48.0777283","lng":"-65.5940065","web":"https:\/\/fermebourdages.com\/","city":"Saint-Siméon-de-Bonaventure","name":"Ferme Bourdages Tradition","phone":null,"state":"QC","postal":"G0C 3A0","address":"255 Av. du Viaduc"},{"id":100,"lat":"48.4252443","lng":"-71.0747634","web":"https:\/\/www.lacommere.ca\/","city":"Chicoutimi","name":"La Commère Magasin Général","phone":null,"state":"QC","postal":"G7J 1H1","address":"194 Rue Price O"},{"id":101,"lat":"47.5667333","lng":"-69.8657813","web":"https:\/\/www.comptoirkamouraska.com\/","city":"Kamouraska","name":"Le Comptoir Gourmand \/ Pâtisserie","phone":null,"state":"QC","postal":"G0L 1M0","address":"52 Av. Morel"},{"id":102,"lat":"46.812565","lng":"-71.372305","web":"http:\/\/cornedabondance.ca\/","city":"L'Ancienne-Lorette","name":"Corne D'Abondance (La","phone":null,"state":"QC","postal":"G2E 3E5","address":"1988 Rue Notre Dame"},{"id":103,"lat":"47.2254967","lng":"-70.2515484","web":"https:\/\/www.lemouleasucre.com\/","city":"Saint-Jean-Port-Joli","name":"Le Moule à Sucre","phone":null,"state":"QC","postal":"G0R 3G0","address":"248 Av. de Gaspé E"},{"id":104,"lat":"45.433714","lng":"-73.5968477","web":"https:\/\/www.facebook.com\/profile.php?id=100064876634593","city":"LaSalle","name":"Les Délices d'ici","phone":null,"state":"QC","postal":"H8P 1K3","address":"7548 Rue Centrale"},{"id":105,"lat":"45.8942411","lng":"-73.7557702","web":"https:\/\/museauxdecosse.com\/","city":"Saint-Lin-Laurentides","name":"Les museaux d’Écosse","phone":null,"state":"QC","postal":"J5M 1Y2","address":"1654 Rte 335"},{"id":106,"lat":"48.3445047","lng":"-70.8811653","web":"https:\/\/www.ogelato.com\/","city":"La Baie","name":"O'Gelato Et Cacao","phone":null,"state":"QC","postal":"G7B 3N1","address":"992 Rue Victoria"},{"id":107,"lat":"45.8902794","lng":"-72.5451318","web":"https:\/\/www.rose.ca\/","city":"Drummondville","name":"Rose Drummond","phone":null,"state":"QC","postal":"J2B 8A9","address":"210 Bd Lemire O"},{"id":108,"lat":"45.4474761","lng":"-73.2882527","web":"https:\/\/www.metro.ca\/trouver-une-epicerie\/182","city":"Chambly","name":"Metro Plus Collin Chambly","phone":null,"state":"QC","postal":"J3L 1W7","address":"1233 Bd de Périgny"},{"id":109,"lat":"46.7153604","lng":"-71.3462746","web":"https:\/\/laserrefleurs.com\/","city":"Saint-Nicolas","name":"Fleuriste La Serre - Fleurs","phone":null,"state":"QC","postal":"G7A 3S8","address":"845 Rte Marie-Victorin Local 8"},{"id":110,"lat":"45.8367964","lng":"-73.4110473","web":"https:\/\/www.metro.ca\/trouver-une-epicerie\/368","city":"L'Assomption","name":"Metro Plus Marquis L'Assomption","phone":null,"state":"QC","postal":"J5W 2T5","address":"790 Mnt de St Sulpice"},{"id":111,"lat":"46.3709173","lng":"-72.6077465","web":"https:\/\/www.marcheduboise.com\/","city":"Trois-Rivières","name":"Marché du Boisé","phone":null,"state":"QC","postal":"G8Y 1Y7","address":"7055 Bd des Forges"},{"id":112,"lat":"49.7604202","lng":"-97.1289665","web":"https:\/\/sagegarden.ca\/","city":"Winnipeg","name":"Sage Garden Greenhouses","phone":null,"state":"MB","postal":"MB R2N 4E2","address":"3410 St Mary's Rd"},{"id":113,"lat":"45.313306","lng":"-73.7618321","web":"https:\/\/rubanbleu.ca\/","city":"Mercier","name":"Fromagerie Ruban Bleu Inc","phone":null,"state":"QC","postal":"J6R 0J5","address":"14 Rang Saint-Charles"},{"id":114,"lat":"45.5229609","lng":"-73.5773451","web":"https:\/\/epiceriebasta.ca\/","city":"Montréal","name":"Épicerie Basta","phone":null,"state":"QC","postal":"H2J 2H3","address":"505 Rue Rachel E"},{"id":115,"lat":"48.5485263","lng":"-71.6495427","web":"https:\/\/www.facebook.com\/DistinctionExpress\/","city":"Alma","name":"Distinction Express","phone":null,"state":"QC","postal":"G8B 1L9","address":"450 Rue Sacré-Coeur O"},{"id":116,"lat":"46.831307","lng":"-71.231431","web":"https:\/\/fr-ca.facebook.com\/Alimpact\/","city":"Québec","name":"Alimentation Escompte L'Impact","phone":null,"state":"QC","postal":"G1J 3C3","address":"1600 4e Avenue"},{"id":117,"lat":"49.402533","lng":"-123.504434","web":"https:\/\/www.ikhaya.ca\/","city":"Gibsons","name":"Ikhaya","phone":null,"state":"BC","postal":"V0N 1V9","address":"451 Marine Dr"},{"id":118,"lat":"46.8036691","lng":"-71.2261451","web":"https:\/\/www.morena-food.com\/","city":"Québec","name":"Morena Epicerie Traiteur Inc","phone":null,"state":"QC","postal":"G1R 2S4","address":"1040 Av. Cartier"},{"id":119,"lat":"45.5184453","lng":"-73.5781538","web":"https:\/\/fr-ca.facebook.com\/www.lambertgratton.ca\/","city":"Montréal","name":"Magasin Général Lambert Gratton","phone":null,"state":"QC","postal":"H2W 2E6","address":"4051 Rue de Bullion"},{"id":120,"lat":"48.409503","lng":"-71.055151","web":"https:\/\/www.passion-cafe.ca\/","city":"Jonquière","name":"Passion Café","phone":null,"state":"QC","postal":"G7S 3B7","address":"1929 Rue Davis"},{"id":121,"lat":"46.1183861","lng":"-74.5949977","web":"https:\/\/instantgourmand.ca\/","city":"Mont-Tremblant","name":"Pâtisserie L'Instant Gourmand","phone":null,"state":"QC","postal":"J8E 3J8","address":"965 Rue de St Jovite"},{"id":122,"lat":"46.5398168","lng":"-72.7524992","web":"https:\/\/www.uni-vertdesartisans.ca\/","city":"Shawinigan","name":"Uni-Vert des Artisans","phone":null,"state":"QC","postal":"G9N 1H3","address":"816 4e rue de la Pointe"},{"id":123,"lat":"45.5030111","lng":"-73.5552223","web":null,"city":"Montreal","name":"Le Petit Dep - Café et épicerie fine","phone":null,"state":"QC","postal":"H2Y 1Z5","address":"179 Saint-Paul St W"},{"id":124,"lat":"45.5986708","lng":"-73.8071235","web":"https:\/\/alaboiteafleurs.com\/","city":"Laval","name":"Fleuriste à la Boîte à Fleurs de Laval","phone":null,"state":"QC","postal":"H7P 4K8","address":"3266 Bd Sainte-Rose"},{"id":125,"lat":"45.887993","lng":"-72.504421","web":"https:\/\/www.lodika.ca\/","city":"Drummondville","name":"L'Odika Bistro Traiteur Épicier","phone":null,"state":"QC","postal":"J2C 5A6","address":"1845 Bd Lemire"},{"id":126,"lat":"45.40341","lng":"-73.9506129","web":"https:\/\/gdaoust.com\/","city":"Sainte-Anne-de-Bellevue","name":"G. D'Aoust & Cie","phone":null,"state":"QC","postal":"H9X 1L9","address":"73 Sainte-Anne St"},{"id":127,"lat":"48.5248445","lng":"-71.6533014","web":"https:\/\/eugeneallard.com\/","city":"Alma","name":"Eugène Allard Cuisine et Tendances","phone":null,"state":"QC","postal":"G8B 6N3","address":"1708 Av. du Pont S"},{"id":128,"lat":"46.8320955","lng":"-71.2810025","web":"https:\/\/eugeneallard.com\/","city":"Québec City","name":"Eugène Allard Cuisine et Tendances","phone":null,"state":"QC","postal":"G2K 0N2","address":"4825 Pierre-Bertrand Blvd"},{"id":129,"lat":"48.104583","lng":"-66.1267275","web":"https:\/\/chopesurmer.com\/","city":"Carleton-sur-Mer","name":"Chope-sur-mer","phone":null,"state":"QC","postal":"G0C 1J0","address":"562 Bd Perron"},{"id":130,"lat":"45.3984047","lng":"-71.9011397","web":"https:\/\/www.celestinecafe.com\/","city":"Sherbrooke","name":"Célestine Café","phone":null,"state":"QC","postal":"J1H 1R7","address":"780 Rue King O suite 110"},{"id":131,"lat":"46.8939764","lng":"-71.2086964","web":"http:\/\/www.cafelouisxiv.com\/","city":"Québec","name":"Louis XIV Café","phone":null,"state":"QC","postal":"G1C 1C7","address":"2661 Boul. Louis-XIV"},{"id":132,"lat":"49.2211904","lng":"-68.1531493","web":"https:\/\/fr-ca.facebook.com\/boutiquem.ca\/","city":"Baie-Comeau","name":"Boutique M - Mec Madame","phone":null,"state":"QC","postal":"G4Z 1J8","address":"61 Pl. la Salle"},{"id":133,"lat":"46.8514353","lng":"-71.2391339","web":"https:\/\/fr-fr.facebook.com\/LeGoutDuPlaisir.Inc\/","city":"Québec","name":"Le Goût Du Plaisir","phone":null,"state":"QC","postal":"G1H 6Z5","address":"905 Rue de Nemours"},{"id":134,"lat":"45.3928556","lng":"-71.9547533","web":"https:\/\/aureres.com\/","city":"Sherbrooke","name":"Auréré's","phone":null,"state":"QC","postal":"J1L 1C7","address":"3025 Rue King O #54"},{"id":135,"lat":"40.71812","lng":"-73.9554372","web":null,"city":"Brooklyn","name":"Tea Bar","phone":null,"state":"NY","postal":"NY 11211","address":"506 Driggs Ave"},{"id":136,"lat":"49.2208165","lng":"-68.151878","web":"https:\/\/jouvent.ca\/","city":"Baie-Comeau","name":"Clinique D'Esthetique Jouvent","phone":null,"state":"QC","postal":"G4Z 1K3","address":"20 Pl. la Salle"},{"id":137,"lat":"32.711699","lng":"-117.158957","web":"https:\/\/www.allans-flowers.com\/","city":"San Diego","name":"Allen's Flowers & Plants","phone":null,"state":"CA","postal":"92101","address":"620 Market St"},{"id":138,"lat":"46.5127872","lng":"-72.7353035","web":"https:\/\/www.acbonsai.com\/","city":"Shawinigan-Sud","name":"Art et Culture Bonsaï","phone":null,"state":"QC","postal":"G9P 1S1","address":"3530 105e Ave"},{"id":139,"lat":"46.8293275","lng":"-71.0159031","web":"https:\/\/brasseursdumonde.com\/magasin\/accommodation-cjms\/","city":"Beaumont","name":"Accomodations CJMS","phone":null,"state":"QC","postal":"G0R 1C0","address":"338 Rte du Fleuve"},{"id":140,"lat":"45.4350398","lng":"-73.67499","web":"https:\/\/glup.boutique\/","city":"Lachine","name":"Glup Boutique","phone":null,"state":"QC","postal":"H8S 2C6","address":"1238 Rue Notre Dame"},{"id":141,"lat":"46.1307386","lng":"-74.5908162","web":"https:\/\/www.83nord.ca\/","city":"Mont-Tremblant","name":"83 Nord","phone":null,"state":"QC","postal":"J8E 2W5","address":"999 Rue Labelle"},{"id":142,"lat":"45.4799137","lng":"-73.3817555","web":"https:\/\/www.archipel-mv.com\/fr","city":"Saint-Hubert","name":"archipel","phone":null,"state":"QC","postal":"J3Z 0G2","address":"2770 Rue Patenaude RR 101"},{"id":143,"lat":"45.4379253","lng":"-75.7373395","web":"https:\/\/www.boucheriedesvilains.com\/","city":"Gatineau","name":"Boucherie des Vilains","phone":null,"state":"QC","postal":"J8Y 4P4","address":"9 Rue Fortier"},{"id":144,"lat":"46.9606543","lng":"-69.7797079","web":"https:\/\/www.facebook.com\/Boutique-La-Pagaille-inc-110270854729954\/","city":"Saint-Pamphile","name":"Boutique La Pagaille inc.","phone":null,"state":"QC","postal":"G0R 3X0","address":"35 Rue Principale"},{"id":145,"lat":"45.2627019","lng":"-72.1396711","web":"https:\/\/www.fitchbaycafe.com\/","city":"Magog","name":"Fitch Bay Café","phone":null,"state":"QC","postal":"J1X 4X5","address":"270 Rue Principale E local 100"},{"id":146,"lat":"47.783542","lng":"-69.464217","web":"https:\/\/www.uniprix.com\/fr\/succursales\/rioux-didier-et-larochelle-karine-saint-antonin","city":"Saint-Antonin","name":"Uniprix Didier Rioux et Karine Larochelle - Pharmacie affiliée","phone":null,"state":"QC","postal":"G0L 2J0","address":"78 Rue Principale"},{"id":147,"lat":"46.058672","lng":"-70.5231073","web":"https:\/\/www.facebook.com\/laboiteapassion\/","city":"Saint-Côme-Linière","name":"La boîte à Passion","phone":null,"state":"QC","postal":"G0M 1J0","address":"1345 Rue Principale"},{"id":148,"lat":"45.8772052","lng":"-74.2272586","web":"https:\/\/lacampagnedici.co\/","city":"Saint-Sauveur","name":"La Campagne d’ici","phone":null,"state":"QC","postal":"J0R 1R4","address":"411 Rue Principale A"},{"id":149,"lat":"46.0263973","lng":"-72.0292942","web":"https:\/\/gladius.ca\/produit\/la-fabrique-a-sucre\/","city":"Victoriaville","name":"La Fabrique à Sucre","phone":null,"state":"QC","postal":"G6R 1H3","address":"16 Rue Laurette"},{"id":150,"lat":"46.0799196","lng":"-74.3190015","web":"http:\/\/www.lecaveau.net\/","city":"Sainte-Agathe-Nord","name":"Boulangerie le Caveau","phone":null,"state":"QC","postal":"J8C 2Z8","address":"4501 route 117 nord"},{"id":151,"lat":"45.893736","lng":"-74.1171631","web":"https:\/\/www.lemoulinauxepices.ca\/","city":"Piedmont","name":"Moulin Aux Epices (Le","phone":null,"state":"QC","postal":"J0R 1K0","address":"159 Chem. du Pont"},{"id":152,"lat":"45.6164517","lng":"-73.7828431","web":"https:\/\/lesminettes.ca\/","city":"Laval","name":"Les Minettes | Boutique gourmande","phone":null,"state":"QC","postal":"H7L 1L3","address":"148 Bd Sainte-Rose"},{"id":153,"lat":"50.2067899","lng":"-66.3879703","web":"https:\/\/fr-ca.facebook.com\/MarcheMelLau\/","city":"Sept-Îles","name":"Marche Mellau","phone":null,"state":"QC","postal":"G4R 5B6","address":"1 Rue Père Divet"},{"id":154,"lat":"46.3333625","lng":"-72.5597127","web":"https:\/\/mareechandelles.com\/","city":"Trois-Rivières","name":"Marée - Chandelles","phone":null,"state":"QC","postal":"G9A 3Z3","address":"3338 Rue Bellefeuille"},{"id":155,"lat":"47.364216","lng":"-70.0374033","web":"https:\/\/www.metro.ca\/trouver-une-epicerie\/150","city":"La Pocatière","name":"Metro Plus Lebel La Pocatière","phone":null,"state":"QC","postal":"G0R 1Z0","address":"615 1re Rue Poiré"},{"id":156,"lat":"45.7297633","lng":"-73.6559982","web":"https:\/\/plaisirchocolatte.com\/","city":"Mascouche","name":"Plaisir Chocolatté","phone":null,"state":"QC","postal":"J7L 3N9","address":"222 Chem. des Anglais"},{"id":157,"lat":"46.6728715","lng":"-73.9157483","web":"https:\/\/www.facebook.com\/profile.php?id=100057258446110","city":"Saint-Michel-des-Saints","name":"Stéphane Buteau chocolatier","phone":null,"state":"QC","postal":"J0K 3B0","address":"250 Rue Brassard"},{"id":158,"lat":"45.451684","lng":"-73.593708","web":"https:\/\/www.lasupersuperette.com\/","city":"Montréal","name":"SUPER SUPÉRETTE","phone":null,"state":"QC","postal":"H4E 3J2","address":"6719 Bd Monk"},{"id":159,"lat":"45.5628938","lng":"-73.6565168","web":"https:\/\/virevent.ca\/","city":"Montreal","name":"Virevent","phone":null,"state":"QC","postal":"H2C 1S5","address":"1517 Rue Fleury E"},{"id":160,"lat":"45.5392775","lng":"-73.5094329","web":null,"city":"Longueuil","name":"William J Walter","phone":null,"state":"QC","postal":"J4H 1C7","address":"123 Rue Saint-Charles O"},{"id":161,"lat":"45.5591797","lng":"-73.6583841","web":"https:\/\/papilleurbaine.com\/","city":"Montréal","name":"Papille Urbaine","phone":null,"state":"QC","postal":"H2C 1R1","address":"1206 Rue Fleury E"},{"id":162,"lat":"45.3986339","lng":"-74.1290824","web":"https:\/\/www.tompol.ca\/","city":"Saint-Lazare","name":"Tompol le Café","phone":null,"state":"QC","postal":"J7T 2X8","address":"1592 Chemin Ste Angélique"},{"id":163,"lat":"45.5017349","lng":"-73.5115581","web":"https:\/\/www.lemarcheauxfleursduvillage.com\/","city":"Saint-Lambert","name":"Le Marché aux Fleurs du Village","phone":null,"state":"QC","postal":"J4P 2J4","address":"480 Victoria Ave"},{"id":164,"lat":"45.5357893","lng":"-73.6165636","web":"https:\/\/www.tah-dah.ca\/","city":"Montréal","name":"Tah-Dah!","phone":null,"state":"QC","postal":"H2R 1S7","address":"156 Rue Jean-TalE"},{"id":165,"lat":"45.562511","lng":"-73.19202","web":"http:\/\/www.eau-vive.ca\/","city":"Mont-Saint-Hilaire","name":"Les Aliments Naturels L'Eau Vive Inc","phone":null,"state":"QC","postal":"J3H 2Y1","address":"248 Rue St Georges"},{"id":166,"lat":"45.6032474","lng":"-73.5189838","web":"https:\/\/www.minilouvre.ca\/","city":"Montréal","name":"Mini Louvre","phone":null,"state":"QC","postal":"H1L 2N3","address":"8859 Rue Hochelaga"},{"id":167,"lat":"45.5361061","lng":"-73.6138707","web":"http:\/\/www.lemarchedessaveurs.com\/","city":"280 Pl. du Marché-du-Nord","name":"Marché Des Saveurs Du Québec","phone":null,"state":"QC","postal":"H2S 1A1","address":"Marché Jean-Talon"},{"id":168,"lat":"45.5090899","lng":"-73.5499142","web":"https:\/\/www.accentdumonde.com\/","city":"18 Prom. du Vieux-Port","name":"Accent du Monde","phone":null,"state":"QC","postal":"H2Y 0B4","address":"Entrée quai de l’Horloge"},{"id":169,"lat":"48.8472138","lng":"-67.529849","web":"https:\/\/toujoursdimanche.com\/","city":"Matane","name":"Boulangerie Toujours Dimanche Inc","phone":null,"state":"QC","postal":"G4W 3B6","address":"431 Av St-Jérôme"},{"id":170,"lat":"45.550567","lng":"-73.549522","web":"https:\/\/fr-fr.facebook.com\/orleansepicerie\/","city":"Montréal","name":"Orléans Épicerie","phone":null,"state":"QC","postal":"H1W 1J8","address":"3899 Rue Hochelaga"},{"id":171,"lat":"45.3667972","lng":"-71.9947496","web":"https:\/\/cafemassawippi.ca\/le-traiteur\/","city":"Sherbrooke","name":"Traiteur Café Massawippi - Sherbrooke","phone":null,"state":"QC","postal":"J1H 1H9","address":"5180 Boul Bourque"},{"id":172,"lat":"46.7093885","lng":"-71.2898222","web":"https:\/\/www.jeancoutu.com\/","city":"Lévis","name":"PJC Jean Coutu","phone":null,"state":"QC","postal":"G6C 1C8","address":"792 Rte du Président-Kennedy bureau 2"},{"id":173,"lat":"45.5759351","lng":"-73.8617672","web":"https:\/\/lassiettedoree.com\/","city":"Saint-Eustache","name":"L'assiette dorée","phone":null,"state":"QC","postal":"J7P 1G3","address":"354 Chem. de la Grande-Côte"},{"id":174,"lat":"45.885008","lng":"-72.4913851","web":"https:\/\/letablibrasserie.com\/","city":"154 Rue Lindsay","name":"L'Établi Brasserie Urbaine","phone":null,"state":"QC","postal":null,"address":"1N6"},{"id":175,"lat":"45.8977894","lng":"-71.3559365","web":"https:\/\/www.intermededulac.com\/","city":"Disraeli","name":"L'Intermède Du Lac Restaurant","phone":null,"state":"QC","postal":"G0N 1E0","address":"285 Rue Guertin"},{"id":176,"lat":"46.8428911","lng":"-71.2759152","web":"https:\/\/www.lacommere.ca\/","city":"Québec","name":"La Commère magasin général de Québec","phone":null,"state":"QC","postal":"G2J 1R8","address":"5700 Bd des Gradins"},{"id":177,"lat":"48.2474796","lng":"-79.0166404","web":"https:\/\/www.facebook.com\/lasemencealimentationsaine\/","city":"Rouyn-Noranda","name":"La Semence Alimentation Saine","phone":null,"state":"QC","postal":"J9X 1Z8","address":"119 7e Rue"},{"id":178,"lat":"45.604131","lng":"-73.529611","web":"https:\/\/aaaboucheriegourmet.com\/","city":"Montréal","name":"AAA Boucherie Gourmet Inc","phone":null,"state":"QC","postal":"H1L 4Y4","address":"3244 Rue des Ormeaux"},{"id":179,"lat":"46.856748","lng":"-71.26177","web":"https:\/\/lapiazzetta.ca\/restaurants\/charlesbourg\/","city":"Québec","name":"La Piazzetta Charlesbourg","phone":null,"state":"QC","postal":"G1H 3C9","address":"6975 Av. Isaac Bédard"},{"id":180,"lat":"48.4511065","lng":"-71.6804564","web":"https:\/\/riverindulac.ca\/","city":"Hébertville-Station","name":"Microlaiterie Riverin du Lac","phone":null,"state":"QC","postal":"G0W 1T0","address":"111 Rang 3e"},{"id":181,"lat":"46.4319198","lng":"-74.3171381","web":"https:\/\/www.sepaq.com\/mont-tremblant","city":"Matawinie Regional County Municipality","name":"Parc national du Mont-Tremblant","phone":null,"state":"QC","postal":"J0T 2C0","address":"Lac-des-Dix-Milles"},{"id":182,"lat":"48.5210998","lng":"-64.2154924","web":"https:\/\/www.savonneriepoussieredetoile.com\/","city":"Percé","name":"Savonnerie Poussière D'Étoile","phone":null,"state":"QC","postal":"G0C 2L0","address":"172 Rte 132"},{"id":183,"lat":"45.5342758","lng":"-73.5778455","web":"https:\/\/etatvegetal.com\/","city":"Montréal","name":"État végétal","phone":null,"state":"QC","postal":"H2H 1V4","address":"4764 Av. Papineau"},{"id":184,"lat":"45.4128723","lng":"-73.1478728","web":"https:\/\/lesgosseuxdbois.com\/","city":"Marieville","name":"Les gosseux d'bois","phone":null,"state":"QC","postal":"J3M 1J4","address":"644 Rue Sainte-Marie"},{"id":185,"lat":"46.7811905","lng":"-71.2519903","web":"https:\/\/maisondes100thes.com\/","city":"Québec","name":"La maison des 100 thés","phone":null,"state":"QC","postal":"G1T 1Z2","address":"1313 Av. Maguire"},{"id":186,"lat":"43.8863754","lng":"-81.3124556","web":null,"city":"Wingham","name":"The Family Tree","phone":null,"state":"ON","postal":"N0G 2W0","address":"238 Josephine St"},{"id":187,"lat":"45.5333","lng":"-73.59742","web":"www.lareservenaturelle.com","city":"Montréal","name":"La Réserve naturelle","phone":"514-543-0955","state":"QC","postal":"H2S 2L7","address":"5854 Rue St-Hubert"},{"id":188,"lat":"45.5609038704152","lng":"-73.65715883089605","web":"https:\/\/www.curieux.ca\/","city":"Montréal","name":"Curieux de nature","phone":"(514) 388-5793","state":"QC","postal":"H2C 1R5","address":"1390 Rue Fleury E"},{"id":189,"lat":"46.10072446","lng":"-60.75008708403075","web":"https:\/\/www.flyingkiteshop.ca\/","city":"Baddeck","name":"Flying Kite Artisan Shop","phone":"(902) 295-3424","state":"NS","postal":"B0E 1B0","address":"507 Chebucto St"},{"id":190,"lat":"45.533515195186624","lng":"-73.57433511345485","web":"https:\/\/www.latelierbotanique.com\/","city":"Montréal","name":"L'atelier botanique","phone":"(514) 549-3121","state":"QC","postal":"H2K 2Z2","address":"1831 Mont-Royal Ave E"},{"id":191,"lat":"48.45386","lng":"-68.52191","web":"https:\/\/www.epicerielardoise.com\/","city":"Rimouski","name":"L'Ardoise","phone":"418-732-3131","state":"QC","postal":"G5L 1A8","address":"152 Rue St Germain E"},{"id":192,"lat":"45.60323","lng":"-73.71088","web":null,"city":"Laval","name":"Boutique Brin De Joie","phone":null,"state":"QC","postal":"H7M 3L9","address":"1755 Bd René-Laennec"},{"id":193,"lat":"46.98277","lng":"-71.36585","web":"alimentsarsenault.com","city":"Stoneham-et-Tewkesbury","name":"Magasin Général Arsenault Shell","phone":"418-848-2274","state":"QC","postal":"G3C 1Y8","address":"2710 Bd Talbot"},{"id":194,"lat":"45.5421","lng":"-73.56511","web":"www.tlcp-dep.com","city":"Montreal","name":"Toutes les choses parfaites","phone":"438-373-9658","state":"QC","postal":"H1Y 3J2","address":"2601 Rue William-Tremblay"},{"id":195,"lat":"45.5379489","lng":"-73.5786823","web":"https:\/\/www.boucheriedanslagueuleduloup.com\/","city":"Montreal","name":"Dans La Gueule Du Loup","phone":"(514) 544-1098","state":"QC","postal":"H2H 1B8","address":"2055 Laurier Ave E,"},{"id":196,"lat":"45.13798","lng":"-71.80658","web":"www.boulangerieoterroir.com","city":"Coaticook","name":"Boulangerie ô Terroir","phone":null,"state":"QC","postal":"J1A2B5","address":"77 rue Wellington,"},{"id":197,"lat":"45.5328451","lng":"-73.5841861","web":"lagenerale.ca","city":"Montreal","name":"La Générale Écodep inc.","phone":"514-781-2362","state":"QC","postal":"H2J 1H1","address":"1290 rue Laurier est,"},{"id":198,"lat":"46.67287150000001","lng":"-73.91574829999999","web":"https:\/\/www.facebook.com\/profile.php?id=100057258446110","city":"Saint-Michel-des-Saints","name":"Stéphane Buteau chocolatier","phone":null,"state":null,"postal":null,"address":"250,Rue Brassard"},{"id":199,"lat":"46.0963034","lng":"-70.6459034","web":null,"city":"Saint-Georges","name":"Ikigaï Santé","phone":"581-761-1778","state":"QC","postal":"G5Y8G9","address":"17144, boulevard Lacroix,"},{"id":200,"lat":"44.00244","lng":"-69.66508","web":"https:\/\/www.treatsofmaine.com\/","city":"Wiscasset","name":"Treats","phone":"207-882-6192","state":"ME","postal":"4578","address":"80 Main St"},{"id":201,"lat":"45.430922","lng":"-73.307661","web":"www.chaquejourcompte.com","city":"Chambly","name":"Chaque jour compte","phone":null,"state":"QC","postal":"J3L1Y7","address":"100"},{"id":202,"lat":"45.5362781","lng":"-73.698189","web":null,"city":"Montréal","name":"IC Créations","phone":null,"state":"QC","postal":"h4j1z6","address":"2560 de Salaberry,"},{"id":203,"lat":"46.1226833","lng":"-70.67675179999999","web":null,"city":"Saint-Georges","name":"Ikigaï Santé","phone":null,"state":"QC","postal":"G5Y8G9","address":"11333 1ᴱ Avenue,"},{"id":204,"lat":"46.81176199999999","lng":"-71.235286","web":"www.jardinsvitrumhortis.ca","city":"Ville de Québec","name":"Jardins Vitrum Hortis ","phone":"581-748-8887","state":"QC","postal":"G1K1K3","address":"201 saint Vallier Ouest,"},{"id":205,"lat":"45.5256203","lng":"-73.5592354","web":"www.arhoma.ca","city":"Montréal","name":"La Fabrique Arhoma","phone":"514-598-1700","state":"QC","postal":"H2L1S7","address":"1700 rue Ontario Est,"},{"id":206,"lat":"46.1342107","lng":"-76.2458928","web":"https:\/\/foretetsens.square.site\/","city":"Cayamant ","name":"Forêt et sens ","phone":"819 592-4294 ","state":"QC","postal":"J0X1Y0","address":"64, rue principale ,"},{"id":207,"lat":"46.4718967","lng":"-64.7213781","web":null,"city":"Bouctouche","name":"Savoie Faire","phone":"514-588-1377","state":"NB","postal":"E4S3C1","address":"102 Chemin du couvent,"},{"id":208,"lat":"45.5256203","lng":"-73.5592354","web":"www.arhoma.ca","city":"Montréal","name":"La Fabrique Arhoma","phone":null,"state":"QC","postal":"H2L1S7","address":"1700 Ontario St E"},{"id":209,"lat":"46.81176199999999","lng":"-71.235286","web":"www.jardinsvitrumhortis.ca","city":"Ville de Québec","name":"Jardins Vitrum Hortis","phone":null,"state":"QC","postal":"G1k1k3","address":"201 Rue Saint-Vallier O"},{"id":210,"lat":"46.8381996","lng":"-72.5014419","web":"belleacroquer.ca","city":"Sainte-Thècle","name":"Belle à croquer inc","phone":"4182892210","state":"QC","postal":"G0X3G0","address":"2500 Chemin Saint-Michel Nord,"},{"id":211,"lat":"46.4785177","lng":"-64.7123563","web":null,"city":"Bouctouche","name":"Savoie Faire","phone":null,"state":"NB","postal":"E4S3C1","address":","},{"id":212,"lat":"45.4065833","lng":"-72.73557199999999","web":"https:\/\/www.facebook.com\/charcuterielashed","city":"Granby","name":"9480-8391 Quebc inc. (La Shed)","phone":"450-525-0677","state":"QC","postal":"J2G2L5","address":"501 Boivin,"},{"id":213,"lat":"46.3440054","lng":"-72.5376589","web":"lebuck.ca","city":"Trois-Rivières","name":"Le Buck","phone":null,"state":"QC","postal":"G9A1P7","address":"142 Rue St François Xavier,"},{"id":214,"lat":"47.0087159","lng":"-71.1873212","web":"oslotraiteur.com","city":"Sainte Brigitte de Laval","name":"Oslo Traiteur Eco Raisonnable inc","phone":"4188250041","state":"QC","postal":"G0A3K0","address":"20 DU DOMAINE RUE,local 101"},{"id":215,"lat":"48.8482171","lng":"-67.5296891","web":"Les Bonheurs de Caroline ","city":"Matane ","name":"Les Bonheurs de Caroline ","phone":"4185623274","state":"QC","postal":"G4W3B5","address":"496 avenue St-Jérome ,"},{"id":216,"lat":"46.8878604","lng":"-71.225966","web":"https:\/\/www.fermebedardblouin.com\/","city":"Québec","name":"Ferme Bédard & Blouin","phone":"4186665518","state":"QC","postal":"G1C1A1","address":"2157 boul. Louis XIV,"},{"id":217,"lat":"45.61824","lng":"-73.05461","web":"www.coteplumes.com","city":"La Présentation","name":"Côté Plumes","phone":"1 450-253-2089","state":"QC","postal":"J0H 1B0","address":"242 Grand Rang"},{"id":218,"lat":"46.8887","lng":"-71.83359","web":"epicerielambroisie.com","city":"Saint-Raymond","name":"Épicerie l'Ambroisie","phone":"1 418-337-0147","state":"QC","postal":"G3L 1S8","address":"170 Rue St Cyrille"},{"id":219,"lat":"45.35812","lng":"-73.92408","web":"www.quinnfarm.qc.ca","city":"Notre-Dame-de-l'Île-Perrot","name":"La Ferme Quinn","phone":"1 514-453-1510","state":"QC","postal":"J7V 8P4","address":"2495 Bd Perrot"},{"id":220,"lat":"45.40795","lng":"-71.8809","web":"www.painvoyageur.com","city":"Sherbrooke","name":"Café Pain Voyageur","phone":"1 819-566-1111","state":"QC","postal":"J1G 1A8","address":"369 Rue King E"},{"id":221,"lat":"46.71536","lng":"-71.34629","web":"www.laserrefleurs.com","city":"Saint-Nicolas","name":"Fleuriste La Serre - Fleurs, Plantes et Déco","phone":"1 418-951-4555","state":"QC","postal":"G7A 3S8","address":"845 Rte Marie-Victorin Local 8"},{"id":222,"lat":"45.6240086","lng":"-72.9468241","web":"http:\/\/www.facebook.com\/BoutiqueUzage","city":"Saint-Hyacinthe","name":"Épicerie Ûzage","phone":"(450) 252-9243","state":"QC","postal":"J2S 3J1","address":"1712 Rue Des Cascades O"},{"id":223,"lat":"46.8102391","lng":"-71.2329249","web":null,"city":"Québec","name":"Tintico L'Art du café colombien","phone":"(418) 948-0736","state":"QC","postal":"1Y6 QC","address":"198 Rue Hermine,"},{"id":224,"lat":"45.5428382","lng":"-73.6294812","web":"pascalleboucher.com","city":"MONTRÉAL","name":"Pascal Le Boucher Ltée","phone":"0","state":"QC","postal":"H2P2G7","address":"8113 RUE SAINT-DENIS,"},{"id":225,"lat":"45.4095097","lng":"-73.47324739999999","web":"refilleco.ca","city":"La Prairie","name":"Refill &co La Prairie","phone":"4509071001","state":"QC","postal":"J5R2l8","address":"1503 suite 101 chemin St-jean ,101"},{"id":226,"lat":"45.5006927","lng":"-73.56048720000001","web":"https:\/\/www.jeancoutu.com\/localisateur-succursale\/montreal-614-rue-saint-jacques-h3c-1e2\/347\/","city":"Montréal","name":"PJC Jean Coutu Santé-Beauté","phone":"(514) 954-9555","state":"QC","postal":"H3C 1E2","address":"614 Rue Saint-Jacques"},{"id":227,"lat":"45.7411341","lng":"-73.60912669999999","web":"http:\/\/www.adressegourmande.com\/","city":"Mascouche","name":"Adresse Gourmande","phone":"(450) 722-0585","state":"QC","postal":"J7K 3G1","address":"813 Mnt Masson"},{"id":228,"lat":"46.0762326","lng":"-74.6838516","web":"http:\/\/www.lepetitrucherdunord.com\/","city":"Brébeuf","name":"Le Petit Rucher du Nord - Honey & Meadery","phone":"(819) 421-1858","state":"QC","postal":"J0T 1B0","address":"362 QC-323"},{"id":229,"lat":"45.6396737","lng":"-73.84196299999999","web":"http:\/\/www.projetspecial.com\/","city":"Sainte-Thérèse","name":"Projet Spécial - L’atelier boutique","phone":null,"state":"QC","postal":"J7E 1W9","address":"4 Rue Blainville O"},{"id":230,"lat":"45.4592599","lng":"-74.1424187","web":"http:\/\/www.quedebonneschoses.ca\/","city":"Hudson","name":"Que De Bonnes Choses","phone":"(450) 458-0558","state":"QC","postal":"J0P 1H0","address":"484-D Rue Main"},{"id":231,"lat":"45.4083343","lng":"-71.86157519999999","web":"https:\/\/www.titefrette.ca\/","city":"Sherbrooke","name":"Tite Frette Sherbrooke","phone":"8197915002","state":"QC","postal":"J1G 1E4","address":"1230 rue King est,"},{"id":232,"lat":"46.7825142","lng":"-71.48212869999999","web":"citeagricole.com","city":"Saint-Augustin de Desmaures","name":"Cité Agricole","phone":"418 878-9651","state":"QC","postal":"G3A1W8","address":"4260 chemin Notre-Dame,"},{"id":233,"lat":"45.5568981","lng":"-73.5564454","web":"https:\/\/espacepourlavie.ca\/mobile\/boutiques","city":"Montreal","name":"Boutiques espace pour la vie","phone":"(514) 868-3000","state":"QC","postal":"H1X 2B4","address":"4567 Boul. Pie-IX,"},{"id":234,"lat":"45.556075","lng":"-73.55720339999999","web":null,"city":"Montréal","name":"Restaurant du Jardin botanique (Espace pour la vie)","phone":"514 240-2500","state":"QC","postal":"H1X2B4","address":"4101 rue Sherbrooke Est"},{"id":235,"lat":"46.0515022","lng":"-71.96269","web":"http:\/\/www.marcheboisfrancs.com\/","city":"Victoriaville","name":"Marché Public Des Bois Francs","phone":"(819) 758-1773","state":"QC","postal":"G6P 1Y8","address":"1 Bd Jutras O"},{"id":236,"lat":"45.4819044","lng":"-72.6695237","web":"https:\/\/www.lecomptoirbeaute.ca","city":"Roxton pond ","name":"Le comptoir beauté ","phone":"4507753083","state":"QC","postal":"J0E1Z0","address":"341 rue Stanley,"},{"id":237,"lat":"45.5356328","lng":"-73.5071121","web":"http:\/\/espaceorganique.com\/","city":"Longueuil","name":"Espace Organique","phone":"(450) 646-1000","state":"QC","postal":"J4H 2X7","address":"369 Rue Saint-Jean"},{"id":238,"lat":"42.9648312","lng":"-78.7305501","web":"Beauteaunaturel.ca","city":"Havre-Aubert","name":"Boutique Beauté au Naturel ","phone":"418-937-0639","state":"QC","postal":"G4T9H9","address":"90 chemin des Bouchard,"},{"id":239,"lat":"46.0792307","lng":"-72.4609913","web":"https:\/\/www.aupaturage.com\/","city":"Sainte-Perpétue","name":"Au Pâturage - Espace Gourmand","phone":"819 469 6235","state":"QC","postal":"J0C 1R0","address":"2581 rang St Joseph,"},{"id":240,"lat":"45.5319253","lng":"-73.6124918","web":"www.sainthoublon.com","city":"Montréal","name":"Saint-Houblon - La microbrasserie","phone":"5145027215","state":"QC","postal":"J2S1H3","address":"6700 boul Saint-Laurent,"},{"id":241,"lat":"48.3968872","lng":"-64.4892077","web":"TBD","city":"Grande-Rivière","name":"îlot bistro et marché","phone":"4186899609","state":"QC","postal":"G0C1V0","address":"172, Grande-Allée Est,"},{"id":242,"lat":"48.4281187","lng":"-71.0555155","web":"https:\/\/cafecambio.ca\/","city":"Chicoutimi","name":"Café Cambio","phone":"(418) 549-7830","state":"QC","postal":"G7H1T3","address":"414 rue Racine Est,"},{"id":243,"lat":"45.261617","lng":"-74.131182","web":"lemuso.com","city":"Salaberry-de-Valleyfield","name":"MUSO Musée de Société des Deux-Rives","phone":"450-370-4855","state":"QC","postal":"J6S1Y1","address":"21, rue Dufferin,"},{"id":244,"lat":"48.8297068","lng":"-64.4833936","web":"https:\/\/oceandesaveurs.ca\/","city":"Gaspé","name":"Un Océan de Saveurs Inc","phone":"5818872465","state":"QC","postal":"G4X6S9","address":"1183 Boul Saint-Majorique,"},{"id":245,"lat":"48.5120884","lng":"-72.237882","web":"www.titefrette.ca","city":"Roberval","name":"Tite Frette Roberval","phone":"4185180282","state":"QC","postal":"g8h2b6","address":"802 Bergeron,"},{"id":246,"lat":"45.5404863","lng":"-73.5405012","web":"herboriteriedesjardins.com","city":"Montréal","name":"Herboristerie Desjardins","phone":"514-523-4860","state":"QC","postal":"H1W2C5","address":"3303 Sainte-catherine Est,"},{"id":247,"lat":"46.8145583","lng":"-71.21077799999999","web":null,"city":"québec","name":"Comptoir Boréal","phone":"4183808237","state":"QC","postal":"G1R4H8","address":"42 cote du palais,"},{"id":248,"lat":"53.54243","lng":"-113.53629","web":"www.acquiredtastetea.com","city":"Edmonton","name":"Acquired Taste Tea","phone":"7804146041","state":"AB","postal":"T5N1P6","address":"10122 124 street,"},{"id":249,"lat":"45.5871731","lng":"-75.4166922","web":null,"city":"Gatineau","name":"Bulles et chiffons","phone":"819-986-7045","state":"QC","postal":"J8M1V1","address":"210 Carpentier,"},{"id":250,"lat":"46.8045449","lng":"-71.2267913","web":"chezmarthe.com","city":"Quebec","name":"Chez Marthe","phone":"4182610796","state":"QC","postal":"G1S3C9","address":"1015 avenue des Braves,"},{"id":251,"lat":"45.4261592","lng":"-75.715526","web":"atelierbalsam.com","city":"Gatineau","name":"Atelier Balsam","phone":"819-777-7133","state":"QC","postal":"J8X2K3","address":"154, promenade du Portage,"},{"id":252,"lat":"46.8063957","lng":"-71.216796","web":"bistrolatelier.com","city":"Québec","name":"Bistro L'Atelier","phone":null,"state":"QC","postal":"G1R2K5","address":"624 Grande-Allée Est,"},{"id":253,"lat":"45.4107544","lng":"-73.47816259999999","web":"www.jardindelouise.com","city":"La prairie","name":"Le Jardin de Louise inc.","phone":"4504442554","state":"QC","postal":"J5R2L7","address":"1200 chemin st-jean,"},{"id":254,"lat":"45.51786","lng":"-73.55614","web":"https:\/\/www.rachellebery.ca\/magasin\/8617?utm_source=G&utm_medium=lpm&utm_campaign=SobeysMontreal","city":"Montréal","name":"Rachelle-Béry épiceries santé","phone":"(514) 845-7152","state":"QC","postal":"H2L 2G7","address":"1150 Rue Sainte-Catherine E"},{"id":255,"lat":"45.5339419","lng":"-73.6164192","web":"https:\/\/www.rachellebery.ca\/magasin\/8600?utm_source=G&utm_medium=lpm&utm_campaign=SobeysMontreal","city":"Montréal","name":"Rachelle-Bery health stores","phone":"(514) 419-6885","state":"QC","postal":"H2S 3E3","address":"7055 Boul. Saint-Laurent"},{"id":256,"lat":"45.576069","lng":"-73.445567","web":"https:\/\/www.rachellebery.ca\/magasin\/8623?utm_source=G&utm_medium=lpm&utm_campaign=SobeysMontreal","city":"Boucherville","name":"Rachelle-Béry health groceries","phone":"(450) 906-4100","state":"QC","postal":"J4B 5M7","address":"100 Bd de Mortagne"},{"id":257,"lat":"45.557338","lng":"-73.659851","web":"https:\/\/www.rachellebery.ca\/magasin\/8625?utm_source=G&utm_medium=lpm&utm_campaign=SobeysMontreal","city":"Montréal","name":"Rachelle-Béry épiceries santé","phone":"(438) 382-9333","state":"QC","postal":"H2C 1P6","address":"905 Rue Fleury E"},{"id":258,"lat":"45.51786","lng":"-73.55614","web":"https:\/\/www.rachellebery.ca\/magasin\/8617?utm_source=G&utm_medium=lpm&utm_campaign=SobeysMontreal","city":"Montréal","name":"Rachelle-Béry épiceries santé","phone":"(514) 845-7152","state":"QC","postal":"H2L 2G7","address":"1150 Rue Sainte-Catherine E"},{"id":259,"lat":"45.5339419","lng":"-73.6164192","web":"https:\/\/www.rachellebery.ca\/magasin\/8600?utm_source=G&utm_medium=lpm&utm_campaign=SobeysMontreal","city":"Montréal","name":"Rachelle-Bery health stores","phone":"(514) 419-6885","state":"QC","postal":"H2S 3E3","address":"7055 Boul. Saint-Laurent"},{"id":260,"lat":"45.74645","lng":"-73.4615694","web":null,"city":"Repentigny","name":"Marché Toit Rouge","phone":"(450) 581-3636","state":"QC","postal":"J6A 6V1","address":"160 Boulevard Brien"},{"id":261,"lat":"45.522152","lng":"-73.57832499999999","web":"https:\/\/www.rachellebery.ca\/magasin\/8628?utm_source=G&utm_medium=lpm&utm_campaign=SobeysMontreal","city":"Montréal","name":"Rachelle-Béry boutiques santé","phone":"(514) 289-1114","state":"QC","postal":"H2J 2K9","address":"4201 R. Saint-Denis"},{"id":262,"lat":"45.5444435","lng":"-73.5951061","web":null,"city":"Montréal","name":"Les Emplettes - Épicerie de quartier","phone":"(514) 508-1960","state":"QC","postal":"H2G 1M1","address":"1960 Rue Beaubien E"},{"id":263,"lat":"45.28932966","lng":"-0.8659506718132117","web":"https:\/\/arvida-signequebec.com\/","city":"Saint-Germain D'Esteuil,","name":"ARVIDA Signé Québec","phone":null,"state":null,"postal":"33340","address":"12 rue du Bourg"}]